rosbagTimestamp,header,seq,stamp,secs,nsecs,frame_id,orientation,x,y,z,w,orientation_covariance,angular_velocity,x,y,z,angular_velocity_covariance,linear_acceleration,x,y,z,linear_acceleration_covariance
1680186300012613023,,51179,,1607383732,395879744,"""fcu""",,-0.00897087614028206,0.0012899952617002847,-0.9999465304185906,-0.004979517780166088,"[1.0, 0.0, 0.0, 0.0, 1.0, 0.0, 0.0, 0.0, 1.0]",,0.0015906670596450567,0.001341088442131883,0.04934798181056976,"[1.2184696791468346e-07, 0.0, 0.0, 0.0, 1.2184696791468346e-07, 0.0, 0.0, 0.0, 1.2184696791468346e-07]",,-0.0784532,0.8924051500000013,9.7870367,"[8.999999999999999e-08, 0.0, 0.0, 0.0, 8.999999999999999e-08, 0.0, 0.0, 0.0, 8.999999999999999e-08]"
1680186300033371843,,51180,,1607383732,408879744,"""fcu""",,-0.00901701122699244,0.0012625025162437734,-0.9999477848368099,-0.004639740928718495,"[1.0, 0.0, 0.0, 0.0, 1.0, 0.0, 0.0, 0.0, 1.0]",,0.003094796556979418,-0.00044593354687094076,0.050014372915029526,"[1.2184696791468346e-07, 0.0, 0.0, 0.0, 1.2184696791468346e-07, 0.0, 0.0, 0.0, 1.2184696791468346e-07]",,-0.10787315,0.9120184500000013,9.77723005,"[8.999999999999999e-08, 0.0, 0.0, 0.0, 8.999999999999999e-08, 0.0, 0.0, 0.0, 8.999999999999999e-08]"
1680186300046024047,,51181,,1607383732,428879744,"""fcu""",,-0.00910784630517154,0.0012188844373452576,-0.9999495258427215,-0.004062908235033248,"[1.0, 0.0, 0.0, 0.0, 1.0, 0.0, 0.0, 0.0, 1.0]",,0.004491390660405159,-0.002331508090719574,0.05151885747909546,"[1.2184696791468346e-07, 0.0, 0.0, 0.0, 1.2184696791468346e-07, 0.0, 0.0, 0.0, 1.2184696791468346e-07]",,-0.0980665,0.9218251000000013,9.77723005,"[8.999999999999999e-08, 0.0, 0.0, 0.0, 8.999999999999999e-08, 0.0, 0.0, 0.0, 8.999999999999999e-08]"
1680186300061529275,,51182,,1607383732,445864448,"""fcu""",,-0.009204808237466718,0.0011626573619906012,-0.9999507702035673,-0.003518082213760154,"[1.0, 0.0, 0.0, 0.0, 1.0, 0.0, 0.0, 0.0, 1.0]",,0.004776865243911743,-0.003855404211208218,0.0539734922349453,"[1.2184696791468346e-07, 0.0, 0.0, 0.0, 1.2184696791468346e-07, 0.0, 0.0, 0.0, 1.2184696791468346e-07]",,-0.10787315,0.9120184500000013,9.7870367,"[8.999999999999999e-08, 0.0, 0.0, 0.0, 8.999999999999999e-08, 0.0, 0.0, 0.0, 8.999999999999999e-08]"
1680186300087131191,,51183,,1607383732,461864448,"""fcu""",,-0.009317910099799077,0.001089537577816629,-0.9999514800014896,-0.003004513616092108,"[1.0, 0.0, 0.0, 0.0, 1.0, 0.0, 0.0, 0.0, 1.0]",,0.006790191400796175,-0.005849367007613175,0.05417248234152794,"[1.2184696791468346e-07, 0.0, 0.0, 0.0, 1.2184696791468346e-07, 0.0, 0.0, 0.0, 1.2184696791468346e-07]",,-0.08825985,0.8924051500000013,9.7870367,"[8.999999999999999e-08, 0.0, 0.0, 0.0, 8.999999999999999e-08, 0.0, 0.0, 0.0, 8.999999999999999e-08]"
1680186300111126913,,51184,,1607383732,477864448,"""fcu""",,-0.009435126782161693,0.0010415243772643342,-0.9999517185242347,-0.002540517664948949,"[1.0, 0.0, 0.0, 0.0, 1.0, 0.0, 0.0, 0.0, 1.0]",,0.006586948409676552,-0.008006615564227097,0.05531558766961098,"[1.2184696791468346e-07, 0.0, 0.0, 0.0, 1.2184696791468346e-07, 0.0, 0.0, 0.0, 1.2184696791468346e-07]",,-0.08825985,0.9316317500000013,9.7870367,"[8.999999999999999e-08, 0.0, 0.0, 0.0, 8.999999999999999e-08, 0.0, 0.0, 0.0, 8.999999999999999e-08]"
1680186300116971417,,51185,,1607383732,494864448,"""fcu""",,-0.009583934544692637,0.0009694033790215514,-0.999951652986852,-0.001974878374526756,"[1.0, 0.0, 0.0, 0.0, 1.0, 0.0, 0.0, 0.0, 1.0]",,0.007511357311159372,-0.009222220629453652,0.05717189237475395,"[1.2184696791468346e-07, 0.0, 0.0, 0.0, 1.2184696791468346e-07, 0.0, 0.0, 0.0, 1.2184696791468346e-07]",,-0.10787315,0.9120184500000013,9.80665,"[8.999999999999999e-08, 0.0, 0.0, 0.0, 8.999999999999999e-08, 0.0, 0.0, 0.0, 8.999999999999999e-08]"
1680186300134349046,,51186,,1607383732,515864448,"""fcu""",,-0.009764505931184244,0.0008965598192825112,-0.999951035634265,-0.0013330185187067636,"[1.0, 0.0, 0.0, 0.0, 1.0, 0.0, 0.0, 0.0, 1.0]",,0.006986667867749929,-0.010591272264719002,0.058502718806266785,"[1.2184696791468346e-07, 0.0, 0.0, 0.0, 1.2184696791468346e-07, 0.0, 0.0, 0.0, 1.2184696791468346e-07]",,-0.10787315,0.9022118000000012,9.81645665,"[8.999999999999999e-08, 0.0, 0.0, 0.0, 8.999999999999999e-08, 0.0, 0.0, 0.0, 8.999999999999999e-08]"
1680186300157437074,,51187,,1607383732,534864448,"""fcu""",,-0.00995112877666823,0.0008032831880772923,-0.9999499221662906,-0.0006949329601465551,"[1.0, 0.0, 0.0, 0.0, 1.0, 0.0, 0.0, 0.0, 1.0]",,0.007259889040142298,-0.011225285939872258,0.05912771448493004,"[1.2184696791468346e-07, 0.0, 0.0, 0.0, 1.2184696791468346e-07, 0.0, 0.0, 0.0, 1.2184696791468346e-07]",,-0.0980665,0.9316317500000013,9.80665,"[8.999999999999999e-08, 0.0, 0.0, 0.0, 8.999999999999999e-08, 0.0, 0.0, 0.0, 8.999999999999999e-08]"
1680186300181940269,,51188,,1607383732,553745408,"""fcu""",,-0.010104474434733533,0.0007436712320898579,-0.9999486521968037,-0.00019879459740201918,"[1.0, 0.0, 0.0, 0.0, 1.0, 0.0, 0.0, 0.0, 1.0]",,0.007844803854823112,-0.01231949217617511,0.0598527230322361,"[1.2184696791468346e-07, 0.0, 0.0, 0.0, 1.2184696791468346e-07, 0.0, 0.0, 0.0, 1.2184696791468346e-07]",,-0.08825985,0.9316317500000013,9.79684335,"[8.999999999999999e-08, 0.0, 0.0, 0.0, 8.999999999999999e-08, 0.0, 0.0, 0.0, 8.999999999999999e-08]"
1680186300191884328,,51189,,1607383732,571745408,"""fcu""",,-0.0102900116119466,0.0006917017123210155,-0.9999467499363395,0.00036674448706958097,"[1.0, 0.0, 0.0, 0.0, 1.0, 0.0, 0.0, 0.0, 1.0]",,0.005068657454103231,-0.01413125824183225,0.06083860993385315,"[1.2184696791468346e-07, 0.0, 0.0, 0.0, 1.2184696791468346e-07, 0.0, 0.0, 0.0, 1.2184696791468346e-07]",,-0.0784532,0.9316317500000013,9.80665,"[8.999999999999999e-08, 0.0, 0.0, 0.0, 8.999999999999999e-08, 0.0, 0.0, 0.0, 8.999999999999999e-08]"
1680186300201429023,,51190,,1607383732,588745408,"""fcu""",,-0.010498256829010833,0.0006376882870893259,-0.9999442157482039,0.0009722905482969498,"[1.0, 0.0, 0.0, 0.0, 1.0, 0.0, 0.0, 0.0, 1.0]",,0.005475307814776897,-0.01524915546178817,0.062182217836380005,"[1.2184696791468346e-07, 0.0, 0.0, 0.0, 1.2184696791468346e-07, 0.0, 0.0, 0.0, 1.2184696791468346e-07]",,-0.08825985,0.9610517000000013,9.81645665,"[8.999999999999999e-08, 0.0, 0.0, 0.0, 8.999999999999999e-08, 0.0, 0.0, 0.0, 8.999999999999999e-08]"
1680186300219938892,,51191,,1607383732,605745408,"""fcu""",,-0.010694394838117165,0.0005772301895948245,-0.9999414470949093,0.001548904804492601,"[1.0, 0.0, 0.0, 0.0, 1.0, 0.0, 0.0, 0.0, 1.0]",,0.0054376013576984406,-0.015321800485253327,0.0626397579908371,"[1.2184696791468346e-07, 0.0, 0.0, 0.0, 1.2184696791468346e-07, 0.0, 0.0, 0.0, 1.2184696791468346e-07]",,-0.08825985,0.9414384000000012,9.79684335,"[8.999999999999999e-08, 0.0, 0.0, 0.0, 8.999999999999999e-08, 0.0, 0.0, 0.0, 8.999999999999999e-08]"
1680186300236994472,,51192,,1607383732,625745408,"""fcu""",,-0.010927490807275522,0.000529684303559356,-0.9999376625322042,0.0022316874394129878,"[1.0, 0.0, 0.0, 0.0, 1.0, 0.0, 0.0, 0.0, 1.0]",,0.0044769360683858395,-0.015539087355136864,0.06351233273744583,"[1.2184696791468346e-07, 0.0, 0.0, 0.0, 1.2184696791468346e-07, 0.0, 0.0, 0.0, 1.2184696791468346e-07]",,-0.08825985,0.9218251000000013,9.79684335,"[8.999999999999999e-08, 0.0, 0.0, 0.0, 8.999999999999999e-08, 0.0, 0.0, 0.0, 8.999999999999999e-08]"
1680186300255497470,,51193,,1607383732,642043008,"""fcu""",,-0.011150434741894307,0.0004674151005135308,-0.9999336634450852,0.002849216994503911,"[1.0, 0.0, 0.0, 0.0, 1.0, 0.0, 0.0, 0.0, 1.0]",,0.004898665472865105,-0.01641037501394748,0.06422533839941025,"[1.2184696791468346e-07, 0.0, 0.0, 0.0, 1.2184696791468346e-07, 0.0, 0.0, 0.0, 1.2184696791468346e-07]",,-0.06864655,0.9512450500000013,9.80665,"[8.999999999999999e-08, 0.0, 0.0, 0.0, 8.999999999999999e-08, 0.0, 0.0, 0.0, 8.999999999999999e-08]"
1680186300275435983,,51194,,1607383732,662043008,"""fcu""",,-0.011393672874315742,0.0004212934513794522,-0.9999286830645591,0.0035546469638563223,"[1.0, 0.0, 0.0, 0.0, 1.0, 0.0, 0.0, 0.0, 1.0]",,0.004371168091893196,-0.016279736533761018,0.06503647565841675,"[1.2184696791468346e-07, 0.0, 0.0, 0.0, 1.2184696791468346e-07, 0.0, 0.0, 0.0, 1.2184696791468346e-07]",,-0.04903325,0.9218251000000013,9.79684335,"[8.999999999999999e-08, 0.0, 0.0, 0.0, 8.999999999999999e-08, 0.0, 0.0, 0.0, 8.999999999999999e-08]"
1680186300290433864,,51195,,1607383732,677043008,"""fcu""",,-0.011581437533131234,0.0003891282895387692,-0.9999245315126482,0.004080461132239143,"[1.0, 0.0, 0.0, 0.0, 1.0, 0.0, 0.0, 0.0, 1.0]",,0.0037546551320701838,-0.016422357410192483,0.0653945803642273,"[1.2184696791468346e-07, 0.0, 0.0, 0.0, 1.2184696791468346e-07, 0.0, 0.0, 0.0, 1.2184696791468346e-07]",,-0.02941995,0.9512450500000013,9.79684335,"[8.999999999999999e-08, 0.0, 0.0, 0.0, 8.999999999999999e-08, 0.0, 0.0, 0.0, 8.999999999999999e-08]"
1680186300306839391,,51196,,1607383732,692043008,"""fcu""",,-0.011756048188204075,0.0003492685450185245,-0.9999203653194705,0.004575626935941545,"[1.0, 0.0, 0.0, 0.0, 1.0, 0.0, 0.0, 0.0, 1.0]",,0.0032134593930095434,-0.017005169764161103,0.06587948650121689,"[1.2184696791468346e-07, 0.0, 0.0, 0.0, 1.2184696791468346e-07, 0.0, 0.0, 0.0, 1.2184696791468346e-07]",,-0.02941995,0.9708583500000013,9.79684335,"[8.999999999999999e-08, 0.0, 0.0, 0.0, 8.999999999999999e-08, 0.0, 0.0, 0.0, 8.999999999999999e-08]"
1680186300321934264,,51197,,1607383732,708043008,"""fcu""",,-0.011952918268593453,0.0003096000793790491,-0.9999153476992821,0.005131211170731897,"[1.0, 0.0, 0.0, 0.0, 1.0, 0.0, 0.0, 0.0, 1.0]",,0.0036764703691005707,-0.01667297258973121,0.06582148373126984,"[1.2184696791468346e-07, 0.0, 0.0, 0.0, 1.2184696791468346e-07, 0.0, 0.0, 0.0, 1.2184696791468346e-07]",,-0.0392266,0.9806650000000012,9.8262633,"[8.999999999999999e-08, 0.0, 0.0, 0.0, 8.999999999999999e-08, 0.0, 0.0, 0.0, 8.999999999999999e-08]"
1680186300345001561,,51198,,1607383732,722043008,"""fcu""",,-0.012124013377006741,0.0002975633739803635,-0.9999104082558479,0.005665264097655553,"[1.0, 0.0, 0.0, 0.0, 1.0, 0.0, 0.0, 0.0, 1.0]",,0.0024771750904619694,-0.014817357063293448,0.06647790223360062,"[1.2184696791468346e-07, 0.0, 0.0, 0.0, 1.2184696791468346e-07, 0.0, 0.0, 0.0, 1.2184696791468346e-07]",,-0.04903325,0.9610517000000013,9.81645665,"[8.999999999999999e-08, 0.0, 0.0, 0.0, 8.999999999999999e-08, 0.0, 0.0, 0.0, 8.999999999999999e-08]"
1680186300357940147,,51199,,1607383732,740043008,"""fcu""",,-0.0123120824366445,0.00024800869432828034,-0.9999043830364837,0.006290938100918519,"[1.0, 0.0, 0.0, 0.0, 1.0, 0.0, 0.0, 0.0, 1.0]",,0.002264765091240406,-0.013741709291934958,0.068216972053051,"[1.2184696791468346e-07, 0.0, 0.0, 0.0, 1.2184696791468346e-07, 0.0, 0.0, 0.0, 1.2184696791468346e-07]",,-0.04903325,0.9610517000000013,9.79684335,"[8.999999999999999e-08, 0.0, 0.0, 0.0, 8.999999999999999e-08, 0.0, 0.0, 0.0, 8.999999999999999e-08]"
1680186300369589716,,51200,,1607383732,753028224,"""fcu""",,-0.012466595174382882,0.00023655408745211457,-0.9998988289715032,0.006845426819329536,"[1.0, 0.0, 0.0, 0.0, 1.0, 0.0, 0.0, 0.0, 1.0]",,0.002460536314174533,-0.012442808598279944,0.0680503249168396,"[1.2184696791468346e-07, 0.0, 0.0, 0.0, 1.2184696791468346e-07, 0.0, 0.0, 0.0, 1.2184696791468346e-07]",,-0.0392266,0.9904716500000013,9.80665,"[8.999999999999999e-08, 0.0, 0.0, 0.0, 8.999999999999999e-08, 0.0, 0.0, 0.0, 8.999999999999999e-08]"
1680186300386763818,,51201,,1607383732,769028224,"""fcu""",,-0.01260692313953205,0.00020593836427427545,-0.9998930721473944,0.007407249826346495,"[1.0, 0.0, 0.0, 0.0, 1.0, 0.0, 0.0, 0.0, 1.0]",,0.001582044642418623,-0.0106836725026369,0.06908447295427322,"[1.2184696791468346e-07, 0.0, 0.0, 0.0, 1.2184696791468346e-07, 0.0, 0.0, 0.0, 1.2184696791468346e-07]",,-0.0392266,0.9904716500000013,9.7870367,"[8.999999999999999e-08, 0.0, 0.0, 0.0, 8.999999999999999e-08, 0.0, 0.0, 0.0, 8.999999999999999e-08]"
1680186300406745687,,51202,,1607383732,786028224,"""fcu""",,-0.012767894159591843,0.00019762684914746055,-0.9998857371176282,0.008090397462132082,"[1.0, 0.0, 0.0, 0.0, 1.0, 0.0, 0.0, 0.0, 1.0]",,0.0008956929668784142,-0.009114007465541354,0.0700114294886589,"[1.2184696791468346e-07, 0.0, 0.0, 0.0, 1.2184696791468346e-07, 0.0, 0.0, 0.0, 1.2184696791468346e-07]",,-0.0196133,0.9806650000000012,9.79684335,"[8.999999999999999e-08, 0.0, 0.0, 0.0, 8.999999999999999e-08, 0.0, 0.0, 0.0, 8.999999999999999e-08]"
1680186300422000451,,51203,,1607383732,803028224,"""fcu""",,-0.012899347600607916,0.00018185125129939264,-0.9998785155377661,0.008748024210889827,"[1.0, 0.0, 0.0, 0.0, 1.0, 0.0, 0.0, 0.0, 1.0]",,0.0001580333337187767,-0.007262243889272204,0.07152853906154633,"[1.2184696791468346e-07, 0.0, 0.0, 0.0, 1.2184696791468346e-07, 0.0, 0.0, 0.0, 1.2184696791468346e-07]",,-0.00980665,0.9904716500000013,9.80665,"[8.999999999999999e-08, 0.0, 0.0, 0.0, 8.999999999999999e-08, 0.0, 0.0, 0.0, 8.999999999999999e-08]"
1680186300434398130,,51204,,1607383732,821028224,"""fcu""",,-0.013029292025471007,0.00017752492985876177,-0.9998704860971559,0.009445478603604673,"[1.0, 0.0, 0.0, 0.0, 1.0, 0.0, 0.0, 0.0, 1.0]",,-0.000552335986867547,-0.005612174049019805,0.07259339094161987,"[1.2184696791468346e-07, 0.0, 0.0, 0.0, 1.2184696791468346e-07, 0.0, 0.0, 0.0, 1.2184696791468346e-07]",,-0.00980665,1.0002783000000013,9.80665,"[8.999999999999999e-08, 0.0, 0.0, 0.0, 8.999999999999999e-08, 0.0, 0.0, 0.0, 8.999999999999999e-08]"
1680186300450025691,,51205,,1607383732,836028224,"""fcu""",,-0.013111765836505918,0.00017114016345031735,-0.9998633967158536,0.010061819692705476,"[1.0, 0.0, 0.0, 0.0, 1.0, 0.0, 0.0, 0.0, 1.0]",,-0.0007900935597717762,-0.002902975771576157,0.07413419336080551,"[1.2184696791468346e-07, 0.0, 0.0, 0.0, 1.2184696791468346e-07, 0.0, 0.0, 0.0, 1.2184696791468346e-07]",,0.0,0.9806650000000012,9.79684335,"[8.999999999999999e-08, 0.0, 0.0, 0.0, 8.999999999999999e-08, 0.0, 0.0, 0.0, 8.999999999999999e-08]"
1680186300468792337,,51206,,1607383732,852892032,"""fcu""",,-0.01317896695933034,0.0001858556669506432,-0.9998551838480143,0.010765297014454112,"[1.0, 0.0, 0.0, 0.0, 1.0, 0.0, 0.0, 0.0, 1.0]",,-0.002279740758240223,0.0013123627286404462,0.07520390301942825,"[1.2184696791468346e-07, 0.0, 0.0, 0.0, 1.2184696791468346e-07, 0.0, 0.0, 0.0, 1.2184696791468346e-07]",,0.0,1.0002783000000013,9.79684335,"[8.999999999999999e-08, 0.0, 0.0, 0.0, 8.999999999999999e-08, 0.0, 0.0, 0.0, 8.999999999999999e-08]"
1680186300484877599,,51207,,1607383732,870892032,"""fcu""",,-0.0132363565878081,0.0002262990838324425,-0.999845847055542,0.01153385359672282,"[1.0, 0.0, 0.0, 0.0, 1.0, 0.0, 0.0, 0.0, 1.0]",,-0.004894227255135775,0.003099329303950081,0.0780765637755394,"[1.2184696791468346e-07, 0.0, 0.0, 0.0, 1.2184696791468346e-07, 0.0, 0.0, 0.0, 1.2184696791468346e-07]",,0.00980665,1.0198916000000013,9.81645665,"[8.999999999999999e-08, 0.0, 0.0, 0.0, 8.999999999999999e-08, 0.0, 0.0, 0.0, 8.999999999999999e-08]"
1680186300503734291,,51208,,1607383732,888892032,"""fcu""",,-0.013256311604934224,0.00024991460902949524,-0.9998367322600562,0.012276667660800988,"[1.0, 0.0, 0.0, 0.0, 1.0, 0.0, 0.0, 0.0, 1.0]",,-0.004658516496419907,0.006529081612825403,0.07960672676563263,"[1.2184696791468346e-07, 0.0, 0.0, 0.0, 1.2184696791468346e-07, 0.0, 0.0, 0.0, 1.2184696791468346e-07]",,0.00980665,0.9806650000000012,9.7870367,"[8.999999999999999e-08, 0.0, 0.0, 0.0, 8.999999999999999e-08, 0.0, 0.0, 0.0, 8.999999999999999e-08]"
1680186300523506706,,51209,,1607383732,908892032,"""fcu""",,-0.013259728914515562,0.00028424405281106277,-0.9998254732316258,0.013157578484936872,"[1.0, 0.0, 0.0, 0.0, 1.0, 0.0, 0.0, 0.0, 1.0]",,-0.004361698869615793,0.009759275242686282,0.08076770603656769,"[1.2184696791468346e-07, 0.0, 0.0, 0.0, 1.2184696791468346e-07, 0.0, 0.0, 0.0, 1.2184696791468346e-07]",,0.0196133,0.9904716500000013,9.7870367,"[8.999999999999999e-08, 0.0, 0.0, 0.0, 8.999999999999999e-08, 0.0, 0.0, 0.0, 8.999999999999999e-08]"
1680186300537858626,,51210,,1607383732,922892032,"""fcu""",,-0.013254887134376891,0.0003393387566331531,-0.9998163961006195,0.013833542736129856,"[1.0, 0.0, 0.0, 0.0, 1.0, 0.0, 0.0, 0.0, 1.0]",,-0.006785920821130276,0.010876210406422625,0.08192144334316254,"[1.2184696791468346e-07, 0.0, 0.0, 0.0, 1.2184696791468346e-07, 0.0, 0.0, 0.0, 1.2184696791468346e-07]",,0.02941995,0.9904716500000013,9.79684335,"[8.999999999999999e-08, 0.0, 0.0, 0.0, 8.999999999999999e-08, 0.0, 0.0, 0.0, 8.999999999999999e-08]"
1680186300561220232,,51211,,1607383732,940892032,"""fcu""",,-0.013220411883492347,0.0003863677801598776,-0.9998049755539873,0.014665683995642775,"[1.0, 0.0, 0.0, 0.0, 1.0, 0.0, 0.0, 0.0, 1.0]",,-0.007506930269300938,0.013733912259340297,0.08442176133394241,"[1.2184696791468346e-07, 0.0, 0.0, 0.0, 1.2184696791468346e-07, 0.0, 0.0, 0.0, 1.2184696791468346e-07]",,0.02941995,0.9904716500000013,9.79684335,"[8.999999999999999e-08, 0.0, 0.0, 0.0, 8.999999999999999e-08, 0.0, 0.0, 0.0, 8.999999999999999e-08]"
1680186300578586237,,51212,,1607383732,957882880,"""fcu""",,-0.01316787645733842,0.0004403601587082084,-0.9997935029295448,0.015471412747544488,"[1.0, 0.0, 0.0, 0.0, 1.0, 0.0, 0.0, 0.0, 1.0]",,-0.00797582883387804,0.016493260860443126,0.08560580015182495,"[1.2184696791468346e-07, 0.0, 0.0, 0.0, 1.2184696791468346e-07, 0.0, 0.0, 0.0, 1.2184696791468346e-07]",,0.02941995,0.9708583500000013,9.7870367,"[8.999999999999999e-08, 0.0, 0.0, 0.0, 8.999999999999999e-08, 0.0, 0.0, 0.0, 8.999999999999999e-08]"
1680186300599934246,,51213,,1607383732,976882880,"""fcu""",,-0.01308847396321053,0.0005153455140414293,-0.9997791973662057,0.016431152792821313,"[1.0, 0.0, 0.0, 0.0, 1.0, 0.0, 0.0, 0.0, 1.0]",,-0.00846869871020317,0.018702151253819476,0.08747178316116333,"[1.2184696791468346e-07, 0.0, 0.0, 0.0, 1.2184696791468346e-07, 0.0, 0.0, 0.0, 1.2184696791468346e-07]",,0.0196133,0.9806650000000012,9.7870367,"[8.999999999999999e-08, 0.0, 0.0, 0.0, 8.999999999999999e-08, 0.0, 0.0, 0.0, 8.999999999999999e-08]"
1680186300615703915,,51214,,1607383732,994882880,"""fcu""",,-0.01299968800983337,0.000599580183995216,-0.9997656881625875,0.017297901261076498,"[1.0, 0.0, 0.0, 0.0, 1.0, 0.0, 0.0, 0.0, 1.0]",,-0.01029980555176735,0.02057935670018197,0.08785876631736755,"[1.2184696791468346e-07, 0.0, 0.0, 0.0, 1.2184696791468346e-07, 0.0, 0.0, 0.0, 1.2184696791468346e-07]",,0.0196133,0.9806650000000012,9.7870367,"[8.999999999999999e-08, 0.0, 0.0, 0.0, 8.999999999999999e-08, 0.0, 0.0, 0.0, 8.999999999999999e-08]"
1680186300631181621,,51215,,1607383733,9882880,"""fcu""",,-0.012912380726984965,0.000655281880990085,-0.9997539880786841,0.018022329216393906,"[1.0, 0.0, 0.0, 0.0, 1.0, 0.0, 0.0, 0.0, 1.0]",,-0.010707447305321693,0.02171793207526208,0.08815687894821167,"[1.2184696791468346e-07, 0.0, 0.0, 0.0, 1.2184696791468346e-07, 0.0, 0.0, 0.0, 1.2184696791468346e-07]",,0.0196133,0.9610517000000013,9.7870367,"[8.999999999999999e-08, 0.0, 0.0, 0.0, 8.999999999999999e-08, 0.0, 0.0, 0.0, 8.999999999999999e-08]"
1680186300643158559,,51216,,1607383733,27882880,"""fcu""",,-0.012808385176091468,0.000750794221750228,-0.9997396348603059,0.018869129990534028,"[1.0, 0.0, 0.0, 0.0, 1.0, 0.0, 0.0, 0.0, 1.0]",,-0.010482924059033394,0.023472534492611895,0.09013427048921585,"[1.2184696791468346e-07, 0.0, 0.0, 0.0, 1.2184696791468346e-07, 0.0, 0.0, 0.0, 1.2184696791468346e-07]",,0.02941995,0.9610517000000013,9.77723005,"[8.999999999999999e-08, 0.0, 0.0, 0.0, 8.999999999999999e-08, 0.0, 0.0, 0.0, 8.999999999999999e-08]"
1680186300662840143,,51217,,1607383733,48440448,"""fcu""",,-0.01268240264226727,0.0008407284569401605,-0.9997214235305374,0.01988781468529488,"[1.0, 0.0, 0.0, 0.0, 1.0, 0.0, 0.0, 0.0, 1.0]",,-0.01072823815047741,0.024374034255743037,0.09235729277133942,"[1.2184696791468346e-07, 0.0, 0.0, 0.0, 1.2184696791468346e-07, 0.0, 0.0, 0.0, 1.2184696791468346e-07]",,0.02941995,0.9512450500000013,9.7674234,"[8.999999999999999e-08, 0.0, 0.0, 0.0, 8.999999999999999e-08, 0.0, 0.0, 0.0, 8.999999999999999e-08]"
1680186300679813313,,51218,,1607383733,66440448,"""fcu""",,-0.012557374375484516,0.0009045435637717554,-0.9997040433203389,0.020816337783124472,"[1.0, 0.0, 0.0, 0.0, 1.0, 0.0, 0.0, 0.0, 1.0]",,-0.00977698341012001,0.024816593155264865,0.09321457892656326,"[1.2184696791468346e-07, 0.0, 0.0, 0.0, 1.2184696791468346e-07, 0.0, 0.0, 0.0, 1.2184696791468346e-07]",,0.00980665,0.9610517000000013,9.7870367,"[8.999999999999999e-08, 0.0, 0.0, 0.0, 8.999999999999999e-08, 0.0, 0.0, 0.0, 8.999999999999999e-08]"
1680186300696626788,,51219,,1607383733,82440448,"""fcu""",,-0.012441442412622752,0.0010017225358944534,-0.999686409093833,0.021709226972238482,"[1.0, 0.0, 0.0, 0.0, 1.0, 0.0, 0.0, 0.0, 1.0]",,-0.010939426720142365,0.025706786662340175,0.09505324810743332,"[1.2184696791468346e-07, 0.0, 0.0, 0.0, 1.2184696791468346e-07, 0.0, 0.0, 0.0, 1.2184696791468346e-07]",,0.0,0.9414384000000012,9.80665,"[8.999999999999999e-08, 0.0, 0.0, 0.0, 8.999999999999999e-08, 0.0, 0.0, 0.0, 8.999999999999999e-08]"
1680186300715659318,,51220,,1607383733,100440448,"""fcu""",,-0.012305151957686089,0.0010595815451954296,-0.9996669054333281,0.022661392357937016,"[1.0, 0.0, 0.0, 0.0, 1.0, 0.0, 0.0, 0.0, 1.0]",,-0.00945018045604229,0.026760146021842967,0.09645354747772217,"[1.2184696791468346e-07, 0.0, 0.0, 0.0, 1.2184696791468346e-07, 0.0, 0.0, 0.0, 1.2184696791468346e-07]",,0.00980665,0.9316317500000013,9.7674234,"[8.999999999999999e-08, 0.0, 0.0, 0.0, 8.999999999999999e-08, 0.0, 0.0, 0.0, 8.999999999999999e-08]"
1680186300734393508,,51221,,1607383733,118440448,"""fcu""",,-0.012183500070089419,0.0011333283065275142,-0.9996471139566975,0.023578071401986422,"[1.0, 0.0, 0.0, 0.0, 1.0, 0.0, 0.0, 0.0, 1.0]",,-0.010162418708205223,0.02646741271018983,0.09826567023992538,"[1.2184696791468346e-07, 0.0, 0.0, 0.0, 1.2184696791468346e-07, 0.0, 0.0, 0.0, 1.2184696791468346e-07]",,0.0,0.9218251000000013,9.75761675,"[8.999999999999999e-08, 0.0, 0.0, 0.0, 8.999999999999999e-08, 0.0, 0.0, 0.0, 8.999999999999999e-08]"
1680186300751040725,,51222,,1607383733,135440448,"""fcu""",,-0.012064962790658934,0.0012063803893009634,-0.9996247607529891,0.02456255297694593,"[1.0, 0.0, 0.0, 0.0, 1.0, 0.0, 0.0, 0.0, 1.0]",,-0.00889421347528696,0.025706771761178984,0.09948648512363434,"[1.2184696791468346e-07, 0.0, 0.0, 0.0, 1.2184696791468346e-07, 0.0, 0.0, 0.0, 1.2184696791468346e-07]",,-0.00980665,0.9316317500000013,9.77723005,"[8.999999999999999e-08, 0.0, 0.0, 0.0, 8.999999999999999e-08, 0.0, 0.0, 0.0, 8.999999999999999e-08]"
1680186300782807746,,51223,,1607383733,154274560,"""fcu""",,-0.011975730244657394,0.0012560971832371068,-0.9996052362657474,0.025384557019431264,"[1.0, 0.0, 0.0, 0.0, 1.0, 0.0, 0.0, 0.0, 1.0]",,-0.008732779882848263,0.024753384292125716,0.10025207698345184,"[1.2184696791468346e-07, 0.0, 0.0, 0.0, 1.2184696791468346e-07, 0.0, 0.0, 0.0, 1.2184696791468346e-07]",,-0.0196133,0.9120184500000013,9.7870367,"[8.999999999999999e-08, 0.0, 0.0, 0.0, 8.999999999999999e-08, 0.0, 0.0, 0.0, 8.999999999999999e-08]"
1680186300797926397,,51224,,1607383733,171274560,"""fcu""",,-0.011886427613197132,0.0013021602266690027,-0.9995818893836872,0.026326101752416564,"[1.0, 0.0, 0.0, 0.0, 1.0, 0.0, 0.0, 0.0, 1.0]",,-0.007852149195969105,0.022844469174742713,0.10093650221824646,"[1.2184696791468346e-07, 0.0, 0.0, 0.0, 1.2184696791468346e-07, 0.0, 0.0, 0.0, 1.2184696791468346e-07]",,-0.02941995,0.9218251000000013,9.7674234,"[8.999999999999999e-08, 0.0, 0.0, 0.0, 8.999999999999999e-08, 0.0, 0.0, 0.0, 8.999999999999999e-08]"
1680186300812593898,,51225,,1607383733,189274560,"""fcu""",,-0.011794708090855826,0.0013600749529004588,-0.9995559530633689,0.027330052190851772,"[1.0, 0.0, 0.0, 0.0, 1.0, 0.0, 0.0, 0.0, 1.0]",,-0.007654368877410889,0.022549625486135497,0.10205784440040588,"[1.2184696791468346e-07, 0.0, 0.0, 0.0, 1.2184696791468346e-07, 0.0, 0.0, 0.0, 1.2184696791468346e-07]",,-0.02941995,0.9316317500000013,9.77723005,"[8.999999999999999e-08, 0.0, 0.0, 0.0, 8.999999999999999e-08, 0.0, 0.0, 0.0, 8.999999999999999e-08]"
1680186300825056740,,51226,,1607383733,206274560,"""fcu""",,-0.011720824428200655,0.0013842686120532368,-0.9995303968283197,0.028278824080126996,"[1.0, 0.0, 0.0, 0.0, 1.0, 0.0, 0.0, 0.0, 1.0]",,-0.005571318790316582,0.021368332207202925,0.10271936655044556,"[1.2184696791468346e-07, 0.0, 0.0, 0.0, 1.2184696791468346e-07, 0.0, 0.0, 0.0, 1.2184696791468346e-07]",,-0.02941995,0.9120184500000013,9.77723005,"[8.999999999999999e-08, 0.0, 0.0, 0.0, 8.999999999999999e-08, 0.0, 0.0, 0.0, 8.999999999999999e-08]"
1680186300842167184,,51227,,1607383733,224274560,"""fcu""",,-0.011655049119734967,0.001418952022099088,-0.9995021774245838,0.02928384757321445,"[1.0, 0.0, 0.0, 0.0, 1.0, 0.0, 0.0, 0.0, 1.0]",,-0.006012978032231331,0.019663292914628996,0.10332264751195908,"[1.2184696791468346e-07, 0.0, 0.0, 0.0, 1.2184696791468346e-07, 0.0, 0.0, 0.0, 1.2184696791468346e-07]",,-0.04903325,0.9316317500000013,9.7674234,"[8.999999999999999e-08, 0.0, 0.0, 0.0, 8.999999999999999e-08, 0.0, 0.0, 0.0, 8.999999999999999e-08]"
1680186300853030420,,51228,,1607383733,242274560,"""fcu""",,-0.011602112331640485,0.001443295330196445,-0.9994739217982586,0.03025206659456431,"[1.0, 0.0, 0.0, 0.0, 1.0, 0.0, 0.0, 0.0, 1.0]",,-0.004544984549283981,0.018989097326993956,0.10413292050361633,"[1.2184696791468346e-07, 0.0, 0.0, 0.0, 1.2184696791468346e-07, 0.0, 0.0, 0.0, 1.2184696791468346e-07]",,-0.0392266,0.9316317500000013,9.75761675,"[8.999999999999999e-08, 0.0, 0.0, 0.0, 8.999999999999999e-08, 0.0, 0.0, 0.0, 8.999999999999999e-08]"
1680186300870038460,,51229,,1607383733,257214016,"""fcu""",,-0.011564090889522363,0.0014540934564886364,-0.9994430656688358,0.031268448963735596,"[1.0, 0.0, 0.0, 0.0, 1.0, 0.0, 0.0, 0.0, 1.0]",,-0.0036213002167642117,0.01675883680582048,0.10421919077634811,"[1.2184696791468346e-07, 0.0, 0.0, 0.0, 1.2184696791468346e-07, 0.0, 0.0, 0.0, 1.2184696791468346e-07]",,-0.0588399,0.9022118000000012,9.7674234,"[8.999999999999999e-08, 0.0, 0.0, 0.0, 8.999999999999999e-08, 0.0, 0.0, 0.0, 8.999999999999999e-08]"
1680186300890202676,,51230,,1607383733,277214016,"""fcu""",,-0.011544380648349103,0.001471338535018935,-0.999406934145439,0.03240898672244297,"[1.0, 0.0, 0.0, 0.0, 1.0, 0.0, 0.0, 0.0, 1.0]",,-0.003558586584404111,0.014598922803998006,0.10516306757926941,"[1.2184696791468346e-07, 0.0, 0.0, 0.0, 1.2184696791468346e-07, 0.0, 0.0, 0.0, 1.2184696791468346e-07]",,-0.0588399,0.9218251000000013,9.7674234,"[8.999999999999999e-08, 0.0, 0.0, 0.0, 8.999999999999999e-08, 0.0, 0.0, 0.0, 8.999999999999999e-08]"
1680186300906388128,,51231,,1607383733,294214016,"""fcu""",,-0.01154878359308884,0.001479155192020553,-0.9993747414211285,0.03338508509634752,"[1.0, 0.0, 0.0, 0.0, 1.0, 0.0, 0.0, 0.0, 1.0]",,-0.002677970565855503,0.012554883025586619,0.10632102936506271,"[1.2184696791468346e-07, 0.0, 0.0, 0.0, 1.2184696791468346e-07, 0.0, 0.0, 0.0, 1.2184696791468346e-07]",,-0.0392266,0.9218251000000013,9.7674234,"[8.999999999999999e-08, 0.0, 0.0, 0.0, 8.999999999999999e-08, 0.0, 0.0, 0.0, 8.999999999999999e-08]"
1680186300922993997,,51232,,1607383733,310214016,"""fcu""",,-0.011559604027205952,0.001480111390355973,-0.9993456870747199,0.03424007228617176,"[1.0, 0.0, 0.0, 0.0, 1.0, 0.0, 0.0, 0.0, 1.0]",,-0.0034385956823825836,0.01126776542514564,0.10636183619499207,"[1.2184696791468346e-07, 0.0, 0.0, 0.0, 1.2184696791468346e-07, 0.0, 0.0, 0.0, 1.2184696791468346e-07]",,-0.0588399,0.9218251000000013,9.7674234,"[8.999999999999999e-08, 0.0, 0.0, 0.0, 8.999999999999999e-08, 0.0, 0.0, 0.0, 8.999999999999999e-08]"
1680186300942089719,,51233,,1607383733,328214016,"""fcu""",,-0.011594751835550643,0.0014955755765850795,-0.9993084277164455,0.03529860165009646,"[1.0, 0.0, 0.0, 0.0, 1.0, 0.0, 0.0, 0.0, 1.0]",,-0.002070599002763629,0.009459263645112528,0.10930945724248886,"[1.2184696791468346e-07, 0.0, 0.0, 0.0, 1.2184696791468346e-07, 0.0, 0.0, 0.0, 1.2184696791468346e-07]",,-0.0588399,0.9218251000000013,9.77723005,"[8.999999999999999e-08, 0.0, 0.0, 0.0, 8.999999999999999e-08, 0.0, 0.0, 0.0, 8.999999999999999e-08]"
1680186300967927877,,51234,,1607383733,347438336,"""fcu""",,-0.01163592449041106,0.0014682549271058678,-0.9992653791445432,0.03648494938785707,"[1.0, 0.0, 0.0, 0.0, 1.0, 0.0, 0.0, 0.0, 1.0]",,-0.00029985583387315273,0.008564104326069369,0.11049699038267136,"[1.2184696791468346e-07, 0.0, 0.0, 0.0, 1.2184696791468346e-07, 0.0, 0.0, 0.0, 1.2184696791468346e-07]",,-0.0588399,0.9316317500000013,9.75761675,"[8.999999999999999e-08, 0.0, 0.0, 0.0, 8.999999999999999e-08, 0.0, 0.0, 0.0, 8.999999999999999e-08]"
1680186300981382842,,51235,,1607383733,361438336,"""fcu""",,-0.01167981940430613,0.0014509210029499107,-0.9992317517496414,0.037381585603999956,"[1.0, 0.0, 0.0, 0.0, 1.0, 0.0, 0.0, 0.0, 1.0]",,-0.00036767800338566303,0.0073187919333577295,0.1110285148024559,"[1.2184696791468346e-07, 0.0, 0.0, 0.0, 1.2184696791468346e-07, 0.0, 0.0, 0.0, 1.2184696791468346e-07]",,-0.04903325,0.9316317500000013,9.77723005,"[8.999999999999999e-08, 0.0, 0.0, 0.0, 8.999999999999999e-08, 0.0, 0.0, 0.0, 8.999999999999999e-08]"
1680186300999354410,,51236,,1607383733,379438336,"""fcu""",,-0.011748893158505276,0.0014211668930223915,-0.9991918949174797,0.03841224967934748,"[1.0, 0.0, 0.0, 0.0, 1.0, 0.0, 0.0, 0.0, 1.0]",,0.0014201248995959759,0.005547096487134709,0.1131674125790596,"[1.2184696791468346e-07, 0.0, 0.0, 0.0, 1.2184696791468346e-07, 0.0, 0.0, 0.0, 1.2184696791468346e-07]",,-0.0392266,0.9218251000000013,9.7478101,"[8.999999999999999e-08, 0.0, 0.0, 0.0, 8.999999999999999e-08, 0.0, 0.0, 0.0, 8.999999999999999e-08]"
1680186301012087371,,51237,,1607383733,391438336,"""fcu""",,-0.011807949738101989,0.001397710930629585,-0.9991603545654459,0.03920720076451667,"[1.0, 0.0, 0.0, 0.0, 1.0, 0.0, 0.0, 0.0, 1.0]",,0.0002904105931520462,0.004698466509580626,0.1146782785654068,"[1.2184696791468346e-07, 0.0, 0.0, 0.0, 1.2184696791468346e-07, 0.0, 0.0, 0.0, 1.2184696791468346e-07]",,-0.0588399,0.9120184500000013,9.7478101,"[8.999999999999999e-08, 0.0, 0.0, 0.0, 8.999999999999999e-08, 0.0, 0.0, 0.0, 8.999999999999999e-08]"
1680186301030802486,,51238,,1607383733,409438336,"""fcu""",,-0.011892064115024891,0.001365479421671934,-0.9991173977612107,0.04026337998603602,"[1.0, 0.0, 0.0, 0.0, 1.0, 0.0, 0.0, 0.0, 1.0]",,0.0016965547110885382,0.0035581430420279646,0.1163531169295311,"[1.2184696791468346e-07, 0.0, 0.0, 0.0, 1.2184696791468346e-07, 0.0, 0.0, 0.0, 1.2184696791468346e-07]",,-0.0588399,0.9022118000000012,9.7281968,"[8.999999999999999e-08, 0.0, 0.0, 0.0, 8.999999999999999e-08, 0.0, 0.0, 0.0, 8.999999999999999e-08]"
1680186301046107174,,51239,,1607383733,427438336,"""fcu""",,-0.011987602799936919,0.001310378349972241,-0.9990703778146928,0.041387926511216644,"[1.0, 0.0, 0.0, 0.0, 1.0, 0.0, 0.0, 0.0, 1.0]",,0.0020651796367019415,0.003037776565179243,0.11855977028608322,"[1.2184696791468346e-07, 0.0, 0.0, 0.0, 1.2184696791468346e-07, 0.0, 0.0, 0.0, 1.2184696791468346e-07]",,-0.06864655,0.9316317500000013,9.77723005,"[8.999999999999999e-08, 0.0, 0.0, 0.0, 8.999999999999999e-08, 0.0, 0.0, 0.0, 8.999999999999999e-08]"
1680186301059771203,,51240,,1607383733,446029760,"""fcu""",,-0.012099111840263575,0.0012668311336901483,-0.9990152728263515,0.04266721564908982,"[1.0, 0.0, 0.0, 0.0, 1.0, 0.0, 0.0, 0.0, 1.0]",,0.001554108690470457,0.002804379444569364,0.12019772082567215,"[1.2184696791468346e-07, 0.0, 0.0, 0.0, 1.2184696791468346e-07, 0.0, 0.0, 0.0, 1.2184696791468346e-07]",,-0.04903325,0.9218251000000013,9.75761675,"[8.999999999999999e-08, 0.0, 0.0, 0.0, 8.999999999999999e-08, 0.0, 0.0, 0.0, 8.999999999999999e-08]"
1680186301075628101,,51241,,1607383733,461029760,"""fcu""",,-0.012193527710485241,0.0012225357465914482,-0.998972553599055,0.04363095740531986,"[1.0, 0.0, 0.0, 0.0, 1.0, 0.0, 0.0, 0.0, 1.0]",,0.0030634610448032618,0.0018236284377053527,0.12043961882591248,"[1.2184696791468346e-07, 0.0, 0.0, 0.0, 1.2184696791468346e-07, 0.0, 0.0, 0.0, 1.2184696791468346e-07]",,-0.0588399,0.9120184500000013,9.73800345,"[8.999999999999999e-08, 0.0, 0.0, 0.0, 8.999999999999999e-08, 0.0, 0.0, 0.0, 8.999999999999999e-08]"
1680186301095516638,,51242,,1607383733,481029760,"""fcu""",,-0.012320942369913577,0.0011648031795967327,-0.9989139628304091,0.044919177142039024,"[1.0, 0.0, 0.0, 0.0, 1.0, 0.0, 0.0, 0.0, 1.0]",,0.0030399183742702007,0.0008945848094299584,0.12155776470899582,"[1.2184696791468346e-07, 0.0, 0.0, 0.0, 1.2184696791468346e-07, 0.0, 0.0, 0.0, 1.2184696791468346e-07]",,-0.04903325,0.8924051500000013,9.75761675,"[8.999999999999999e-08, 0.0, 0.0, 0.0, 8.999999999999999e-08, 0.0, 0.0, 0.0, 8.999999999999999e-08]"
1680186301113246071,,51243,,1607383733,499029760,"""fcu""",,-0.012425524038648692,0.0010936919070782783,-0.9988621617609069,0.04603033774268156,"[1.0, 0.0, 0.0, 0.0, 1.0, 0.0, 0.0, 0.0, 1.0]",,0.004199865274131298,0.0016059398185461911,0.1232956126332283,"[1.2184696791468346e-07, 0.0, 0.0, 0.0, 1.2184696791468346e-07, 0.0, 0.0, 0.0, 1.2184696791468346e-07]",,-0.02941995,0.9120184500000013,9.73800345,"[8.999999999999999e-08, 0.0, 0.0, 0.0, 8.999999999999999e-08, 0.0, 0.0, 0.0, 8.999999999999999e-08]"
1680186301130885433,,51244,,1607383733,517029760,"""fcu""",,-0.0125436351365526,0.0010492917140568956,-0.9988060692510954,0.04720161259571559,"[1.0, 0.0, 0.0, 0.0, 1.0, 0.0, 0.0, 0.0, 1.0]",,0.0023513492196798325,0.001009693485684708,0.12380432337522507,"[1.2184696791468346e-07, 0.0, 0.0, 0.0, 1.2184696791468346e-07, 0.0, 0.0, 0.0, 1.2184696791468346e-07]",,-0.0392266,0.9120184500000013,9.75761675,"[8.999999999999999e-08, 0.0, 0.0, 0.0, 8.999999999999999e-08, 0.0, 0.0, 0.0, 8.999999999999999e-08]"
1680186301146771496,,51245,,1607383733,533029760,"""fcu""",,-0.012653682930748866,0.0009861006156539434,-0.9987509201685032,0.048327128783241136,"[1.0, 0.0, 0.0, 0.0, 1.0, 0.0, 0.0, 0.0, 1.0]",,0.0037505493964999914,0.0011619273573160323,0.12475337833166122,"[1.2184696791468346e-07, 0.0, 0.0, 0.0, 1.2184696791468346e-07, 0.0, 0.0, 0.0, 1.2184696791468346e-07]",,-0.0392266,0.9120184500000013,9.7478101,"[8.999999999999999e-08, 0.0, 0.0, 0.0, 8.999999999999999e-08, 0.0, 0.0, 0.0, 8.999999999999999e-08]"
1680186301165525950,,51246,,1607383733,551087616,"""fcu""",,-0.012756362857075819,0.0009098044306009513,-0.9986908523464754,0.04952806176327912,"[1.0, 0.0, 0.0, 0.0, 1.0, 0.0, 0.0, 0.0, 1.0]",,0.005310435313731432,0.002666132524609581,0.1254195272922516,"[1.2184696791468346e-07, 0.0, 0.0, 0.0, 1.2184696791468346e-07, 0.0, 0.0, 0.0, 1.2184696791468346e-07]",,-0.04903325,0.9120184500000013,9.7478101,"[8.999999999999999e-08, 0.0, 0.0, 0.0, 8.999999999999999e-08, 0.0, 0.0, 0.0, 8.999999999999999e-08]"
1680186301180917174,,51247,,1607383733,567087616,"""fcu""",,-0.012846519014341208,0.0008574638706075424,-0.998639492722291,0.05053113179308344,"[1.0, 0.0, 0.0, 0.0, 1.0, 0.0, 0.0, 0.0, 1.0]",,0.005702424328774214,0.002387073356658236,0.12586599588394165,"[1.2184696791468346e-07, 0.0, 0.0, 0.0, 1.2184696791468346e-07, 0.0, 0.0, 0.0, 1.2184696791468346e-07]",,-0.02941995,0.9218251000000013,9.77723005,"[8.999999999999999e-08, 0.0, 0.0, 0.0, 8.999999999999999e-08, 0.0, 0.0, 0.0, 8.999999999999999e-08]"
1680186301194484695,,51248,,1607383733,581087616,"""fcu""",,-0.012927082959275584,0.0007907481227705207,-0.998587205618817,0.051535017395678395,"[1.0, 0.0, 0.0, 0.0, 1.0, 0.0, 0.0, 0.0, 1.0]",,0.005183135159313679,0.0033482664730400003,0.1262613981962204,"[1.2184696791468346e-07, 0.0, 0.0, 0.0, 1.2184696791468346e-07, 0.0, 0.0, 0.0, 1.2184696791468346e-07]",,-0.02941995,0.9316317500000013,9.7674234,"[8.999999999999999e-08, 0.0, 0.0, 0.0, 8.999999999999999e-08, 0.0, 0.0, 0.0, 8.999999999999999e-08]"
1680186301211920810,,51249,,1607383733,599087616,"""fcu""",,-0.013000549836029917,0.0007064036780947635,-0.9985263712644039,0.05268370324252558,"[1.0, 0.0, 0.0, 0.0, 1.0, 0.0, 0.0, 0.0, 1.0]",,0.005754513666033745,0.00525415968149902,0.12723204493522644,"[1.2184696791468346e-07, 0.0, 0.0, 0.0, 1.2184696791468346e-07, 0.0, 0.0, 0.0, 1.2184696791468346e-07]",,-0.0196133,0.9218251000000013,9.7674234,"[8.999999999999999e-08, 0.0, 0.0, 0.0, 8.999999999999999e-08, 0.0, 0.0, 0.0, 8.999999999999999e-08]"
1680186301227150227,,51250,,1607383733,613087616,"""fcu""",,-0.013064043335784667,0.0006504814306927723,-0.9984714498996663,0.0536998266374043,"[1.0, 0.0, 0.0, 0.0, 1.0, 0.0, 0.0, 0.0, 1.0]",,0.005786293186247349,0.0060964701697230495,0.12817957997322083,"[1.2184696791468346e-07, 0.0, 0.0, 0.0, 1.2184696791468346e-07, 0.0, 0.0, 0.0, 1.2184696791468346e-07]",,-0.00980665,0.9316317500000013,9.7870367,"[8.999999999999999e-08, 0.0, 0.0, 0.0, 8.999999999999999e-08, 0.0, 0.0, 0.0, 8.999999999999999e-08]"
1680186301257451536,,51251,,1607383733,631087616,"""fcu""",,-0.013125130461588417,0.0005605769973190257,-0.9984042299683398,0.05492185616967843,"[1.0, 0.0, 0.0, 0.0, 1.0, 0.0, 0.0, 0.0, 1.0]",,0.006873180158436298,0.007422883063554779,0.1283709704875946,"[1.2184696791468346e-07, 0.0, 0.0, 0.0, 1.2184696791468346e-07, 0.0, 0.0, 0.0, 1.2184696791468346e-07]",,-0.00980665,0.9022118000000012,9.77723005,"[8.999999999999999e-08, 0.0, 0.0, 0.0, 8.999999999999999e-08, 0.0, 0.0, 0.0, 8.999999999999999e-08]"
1680186301270514165,,51252,,1607383733,645889280,"""fcu""",,-0.013176731548474594,0.0004950658773892149,-0.9983464273817368,0.0559512250947124,"[1.0, 0.0, 0.0, 0.0, 1.0, 0.0, 0.0, 0.0, 1.0]",,0.006135051138699055,0.007819786667823807,0.12919741868972778,"[1.2184696791468346e-07, 0.0, 0.0, 0.0, 1.2184696791468346e-07, 0.0, 0.0, 0.0, 1.2184696791468346e-07]",,0.00980665,0.9316317500000013,9.77723005,"[8.999999999999999e-08, 0.0, 0.0, 0.0, 8.999999999999999e-08, 0.0, 0.0, 0.0, 8.999999999999999e-08]"
1680186301283175688,,51253,,1607383733,659889280,"""fcu""",,-0.013212037155144544,0.0004225256448135693,-0.9982910019235323,0.05692397583444647,"[1.0, 0.0, 0.0, 0.0, 1.0, 0.0, 0.0, 0.0, 1.0]",,0.006801001727581024,0.009228038601577298,0.12961356341838837,"[1.2184696791468346e-07, 0.0, 0.0, 0.0, 1.2184696791468346e-07, 0.0, 0.0, 0.0, 1.2184696791468346e-07]",,0.0,0.9218251000000013,9.7674234,"[8.999999999999999e-08, 0.0, 0.0, 0.0, 8.999999999999999e-08, 0.0, 0.0, 0.0, 8.999999999999999e-08]"
1680186301300622520,,51254,,1607383733,677889280,"""fcu""",,-0.013243013857577557,0.0003229031210489823,-0.9982187651547456,0.05817056996864489,"[1.0, 0.0, 0.0, 0.0, 1.0, 0.0, 0.0, 0.0, 1.0]",,0.007569075096398592,0.01074318308383228,0.13069017231464386,"[1.2184696791468346e-07, 0.0, 0.0, 0.0, 1.2184696791468346e-07, 0.0, 0.0, 0.0, 1.2184696791468346e-07]",,0.0,0.9218251000000013,9.7870367,"[8.999999999999999e-08, 0.0, 0.0, 0.0, 8.999999999999999e-08, 0.0, 0.0, 0.0, 8.999999999999999e-08]"
1680186301322205090,,51255,,1607383733,697889280,"""fcu""",,-0.013264171218485674,0.0002300222502447913,-0.9981363507023305,0.05956369916555754,"[1.0, 0.0, 0.0, 0.0, 1.0, 0.0, 0.0, 0.0, 1.0]",,0.0069305989891290665,0.012657613493502156,0.13150082528591156,"[1.2184696791468346e-07, 0.0, 0.0, 0.0, 1.2184696791468346e-07, 0.0, 0.0, 0.0, 1.2184696791468346e-07]",,0.0,0.9218251000000013,9.7870367,"[8.999999999999999e-08, 0.0, 0.0, 0.0, 8.999999999999999e-08, 0.0, 0.0, 0.0, 8.999999999999999e-08]"
1680186301334076371,,51256,,1607383733,711889280,"""fcu""",,-0.013269461741894075,0.00015628302885758611,-0.9980727441073154,0.06061925792014211,"[1.0, 0.0, 0.0, 0.0, 1.0, 0.0, 0.0, 0.0, 1.0]",,0.007587340660393238,0.013919112272560612,0.13213911652565002,"[1.2184696791468346e-07, 0.0, 0.0, 0.0, 1.2184696791468346e-07, 0.0, 0.0, 0.0, 1.2184696791468346e-07]",,0.00980665,0.9316317500000013,9.77723005,"[8.999999999999999e-08, 0.0, 0.0, 0.0, 8.999999999999999e-08, 0.0, 0.0, 0.0, 8.999999999999999e-08]"
1680186301344693772,,51257,,1607383733,729889280,"""fcu""",,-0.013262122179556838,4.537883417417674e-05,-0.9979944307182054,0.06189693297329607,"[1.0, 0.0, 0.0, 0.0, 1.0, 0.0, 0.0, 0.0, 1.0]",,0.008219921961426735,0.015595602802932278,0.13381850719451904,"[1.2184696791468346e-07, 0.0, 0.0, 0.0, 1.2184696791468346e-07, 0.0, 0.0, 0.0, 1.2184696791468346e-07]",,0.0,0.9218251000000013,9.7870367,"[8.999999999999999e-08, 0.0, 0.0, 0.0, 8.999999999999999e-08, 0.0, 0.0, 0.0, 8.999999999999999e-08]"
1680186301365492567,,51258,,1607383733,750490624,"""fcu""",,-0.01324966242123589,-3.21224745191934e-05,-0.9979034104161031,0.06335005046391479,"[1.0, 0.0, 0.0, 0.0, 1.0, 0.0, 0.0, 0.0, 1.0]",,0.007287195883691311,0.017039474099874514,0.13541792333126068,"[1.2184696791468346e-07, 0.0, 0.0, 0.0, 1.2184696791468346e-07, 0.0, 0.0, 0.0, 1.2184696791468346e-07]",,0.00980665,0.9414384000000012,9.79684335,"[8.999999999999999e-08, 0.0, 0.0, 0.0, 8.999999999999999e-08, 0.0, 0.0, 0.0, 8.999999999999999e-08]"
1680186301379391269,,51259,,1607383733,766490624,"""fcu""",,-0.013229863071636188,-0.00011153837412316566,-0.997834756536774,0.06442636827801174,"[1.0, 0.0, 0.0, 0.0, 1.0, 0.0, 0.0, 0.0, 1.0]",,0.007063237950205803,0.01753123104572298,0.13512088358402252,"[1.2184696791468346e-07, 0.0, 0.0, 0.0, 1.2184696791468346e-07, 0.0, 0.0, 0.0, 1.2184696791468346e-07]",,0.0,0.9610517000000013,9.79684335,"[8.999999999999999e-08, 0.0, 0.0, 0.0, 8.999999999999999e-08, 0.0, 0.0, 0.0, 8.999999999999999e-08]"
1680186301396072383,,51260,,1607383733,780490624,"""fcu""",,-0.013200412611958824,-0.00019332940395192698,-0.9977647309930993,0.06550765845978518,"[1.0, 0.0, 0.0, 0.0, 1.0, 0.0, 0.0, 0.0, 1.0]",,0.007451960816979408,0.01875757053494455,0.13531823456287384,"[1.2184696791468346e-07, 0.0, 0.0, 0.0, 1.2184696791468346e-07, 0.0, 0.0, 0.0, 1.2184696791468346e-07]",,0.0,0.9512450500000013,9.79684335,"[8.999999999999999e-08, 0.0, 0.0, 0.0, 8.999999999999999e-08, 0.0, 0.0, 0.0, 8.999999999999999e-08]"
1680186301411514264,,51261,,1607383733,798490624,"""fcu""",,-0.013154832663130776,-0.00027015032895121336,-0.9976833848722608,0.06674384575549347,"[1.0, 0.0, 0.0, 0.0, 1.0, 0.0, 0.0, 0.0, 1.0]",,0.007158931344747543,0.020270219072699564,0.13613688945770264,"[1.2184696791468346e-07, 0.0, 0.0, 0.0, 1.2184696791468346e-07, 0.0, 0.0, 0.0, 1.2184696791468346e-07]",,0.0,0.9316317500000013,9.8262633,"[8.999999999999999e-08, 0.0, 0.0, 0.0, 8.999999999999999e-08, 0.0, 0.0, 0.0, 8.999999999999999e-08]"
1680186301428324555,,51262,,1607383733,812490624,"""fcu""",,-0.013120929950009037,-0.0003399456552732341,-0.9976099963983551,0.0678381951430923,"[1.0, 0.0, 0.0, 0.0, 1.0, 0.0, 0.0, 0.0, 1.0]",,0.006683402694761753,0.02033991366624834,0.1370248794555664,"[1.2184696791468346e-07, 0.0, 0.0, 0.0, 1.2184696791468346e-07, 0.0, 0.0, 0.0, 1.2184696791468346e-07]",,0.00980665,0.9414384000000012,9.81645665,"[8.999999999999999e-08, 0.0, 0.0, 0.0, 8.999999999999999e-08, 0.0, 0.0, 0.0, 8.999999999999999e-08]"
1680186301446433294,,51263,,1607383733,830490624,"""fcu""",,-0.013074226308444634,-0.00042650549085363403,-0.9975204370304449,0.06915099714459766,"[1.0, 0.0, 0.0, 0.0, 1.0, 0.0, 0.0, 0.0, 1.0]",,0.0075638266280293465,0.020819783210754412,0.1371992826461792,"[1.2184696791468346e-07, 0.0, 0.0, 0.0, 1.2184696791468346e-07, 0.0, 0.0, 0.0, 1.2184696791468346e-07]",,0.0,0.9316317500000013,9.79684335,"[8.999999999999999e-08, 0.0, 0.0, 0.0, 8.999999999999999e-08, 0.0, 0.0, 0.0, 8.999999999999999e-08]"
1680186301473170163,,51264,,1607383733,851621376,"""fcu""",,-0.013017711636284223,-0.0005168243275610959,-0.9974178394906119,0.07062524720132962,"[1.0, 0.0, 0.0, 0.0, 1.0, 0.0, 0.0, 0.0, 1.0]",,0.00624910369515419,0.02112007513642313,0.13818882405757904,"[1.2184696791468346e-07, 0.0, 0.0, 0.0, 1.2184696791468346e-07, 0.0, 0.0, 0.0, 1.2184696791468346e-07]",,-0.0196133,0.9414384000000012,9.7674234,"[8.999999999999999e-08, 0.0, 0.0, 0.0, 8.999999999999999e-08, 0.0, 0.0, 0.0, 8.999999999999999e-08]"
1680186301490269685,,51265,,1607383733,869621376,"""fcu""",,-0.012972682358305777,-0.0005887172854563213,-0.9973290463603157,0.07187583885014198,"[1.0, 0.0, 0.0, 0.0, 1.0, 0.0, 0.0, 0.0, 1.0]",,0.0057618459686636925,0.02088491991162302,0.13815604150295258,"[1.2184696791468346e-07, 0.0, 0.0, 0.0, 1.2184696791468346e-07, 0.0, 0.0, 0.0, 1.2184696791468346e-07]",,-0.02941995,0.9218251000000013,9.80665,"[8.999999999999999e-08, 0.0, 0.0, 0.0, 8.999999999999999e-08, 0.0, 0.0, 0.0, 8.999999999999999e-08]"
1680186301506948154,,51266,,1607383733,881621376,"""fcu""",,-0.012942264247714382,-0.0006320964746000356,-0.9972596088920688,0.07283797582736046,"[1.0, 0.0, 0.0, 0.0, 1.0, 0.0, 0.0, 0.0, 1.0]",,0.004909384064376354,0.020833818241953867,0.13875718414783478,"[1.2184696791468346e-07, 0.0, 0.0, 0.0, 1.2184696791468346e-07, 0.0, 0.0, 0.0, 1.2184696791468346e-07]",,-0.0196133,0.9218251000000013,9.79684335,"[8.999999999999999e-08, 0.0, 0.0, 0.0, 8.999999999999999e-08, 0.0, 0.0, 0.0, 8.999999999999999e-08]"
1680186301523455922,,51267,,1607383733,901621376,"""fcu""",,-0.012899051755516701,-0.0006953755864686353,-0.9971517356952113,0.07430711215374802,"[1.0, 0.0, 0.0, 0.0, 1.0, 0.0, 0.0, 0.0, 1.0]",,0.0046246969141066074,0.020261324942111986,0.13849511742591858,"[1.2184696791468346e-07, 0.0, 0.0, 0.0, 1.2184696791468346e-07, 0.0, 0.0, 0.0, 1.2184696791468346e-07]",,-0.00980665,0.9414384000000012,9.80665,"[8.999999999999999e-08, 0.0, 0.0, 0.0, 8.999999999999999e-08, 0.0, 0.0, 0.0, 8.999999999999999e-08]"
1680186301539316311,,51268,,1607383733,917621376,"""fcu""",,-0.01286578991600396,-0.0007432344563626927,-0.9970688124427426,0.07541685691142919,"[1.0, 0.0, 0.0, 0.0, 1.0, 0.0, 0.0, 0.0, 1.0]",,0.004219863098114729,0.020170792937278765,0.13920016586780548,"[1.2184696791468346e-07, 0.0, 0.0, 0.0, 1.2184696791468346e-07, 0.0, 0.0, 0.0, 1.2184696791468346e-07]",,-0.00980665,0.9414384000000012,9.81645665,"[8.999999999999999e-08, 0.0, 0.0, 0.0, 8.999999999999999e-08, 0.0, 0.0, 0.0, 8.999999999999999e-08]"
1680186301548351260,,51269,,1607383733,931621376,"""fcu""",,-0.012835234587635334,-0.00080431855440464,-0.9969843466995931,0.07652987822235663,"[1.0, 0.0, 0.0, 0.0, 1.0, 0.0, 0.0, 0.0, 1.0]",,0.004448323510587215,0.0200084298849106,0.13981950283050537,"[1.2184696791468346e-07, 0.0, 0.0, 0.0, 1.2184696791468346e-07, 0.0, 0.0, 0.0, 1.2184696791468346e-07]",,-0.00980665,0.9316317500000013,9.8262633,"[8.999999999999999e-08, 0.0, 0.0, 0.0, 8.999999999999999e-08, 0.0, 0.0, 0.0, 8.999999999999999e-08]"
1680186301561269301,,51270,,1607383733,947213824,"""fcu""",,-0.012820544719538463,-0.0008381091359092116,-0.9968980387856528,0.07764812600114457,"[1.0, 0.0, 0.0, 0.0, 1.0, 0.0, 0.0, 0.0, 1.0]",,0.003432271769270301,0.018777249380946177,0.14033269882202148,"[1.2184696791468346e-07, 0.0, 0.0, 0.0, 1.2184696791468346e-07, 0.0, 0.0, 0.0, 1.2184696791468346e-07]",,-0.0196133,0.9610517000000013,9.8262633,"[8.999999999999999e-08, 0.0, 0.0, 0.0, 8.999999999999999e-08, 0.0, 0.0, 0.0, 8.999999999999999e-08]"
1680186301577208572,,51271,,1607383733,963213824,"""fcu""",,-0.012811739061907516,-0.0008768118903132385,-0.9967984900077747,0.0789167970798288,"[1.0, 0.0, 0.0, 0.0, 1.0, 0.0, 0.0, 0.0, 1.0]",,0.0021730761509388685,0.017516560852527636,0.14047256112098694,"[1.2184696791468346e-07, 0.0, 0.0, 0.0, 1.2184696791468346e-07, 0.0, 0.0, 0.0, 1.2184696791468346e-07]",,-0.00980665,0.9708583500000013,9.81645665,"[8.999999999999999e-08, 0.0, 0.0, 0.0, 8.999999999999999e-08, 0.0, 0.0, 0.0, 8.999999999999999e-08]"
1680186301593658687,,51272,,1607383733,979213824,"""fcu""",,-0.012811576595544421,-0.0009045956670187526,-0.9967096872903276,0.08003027223140602,"[1.0, 0.0, 0.0, 0.0, 1.0, 0.0, 0.0, 0.0, 1.0]",,0.0012474686373025179,0.01628531329333784,0.1402641236782074,"[1.2184696791468346e-07, 0.0, 0.0, 0.0, 1.2184696791468346e-07, 0.0, 0.0, 0.0, 1.2184696791468346e-07]",,-0.00980665,0.9512450500000013,9.8262633,"[8.999999999999999e-08, 0.0, 0.0, 0.0, 8.999999999999999e-08, 0.0, 0.0, 0.0, 8.999999999999999e-08]"
1680186301611851507,,51273,,1607383733,998213824,"""fcu""",,-0.012824984851837647,-0.0009516173400727935,-0.9965888166092455,0.08151898427588428,"[1.0, 0.0, 0.0, 0.0, 1.0, 0.0, 0.0, 0.0, 1.0]",,0.0013044767547398806,0.014846924692392367,0.14114421606063843,"[1.2184696791468346e-07, 0.0, 0.0, 0.0, 1.2184696791468346e-07, 0.0, 0.0, 0.0, 1.2184696791468346e-07]",,0.0,0.9708583500000013,9.81645665,"[8.999999999999999e-08, 0.0, 0.0, 0.0, 8.999999999999999e-08, 0.0, 0.0, 0.0, 8.999999999999999e-08]"
1680186301625378980,,51274,,1607383734,11213824,"""fcu""",,-0.012844556930006681,-0.0009697959351850505,-0.9965088987502853,0.08248691753611431,"[1.0, 0.0, 0.0, 0.0, 1.0, 0.0, 0.0, 0.0, 1.0]",,0.00047836732119321823,0.013887083157897013,0.141688734292984,"[1.2184696791468346e-07, 0.0, 0.0, 0.0, 1.2184696791468346e-07, 0.0, 0.0, 0.0, 1.2184696791468346e-07]",,-0.0196133,1.0002783000000013,9.81645665,"[8.999999999999999e-08, 0.0, 0.0, 0.0, 8.999999999999999e-08, 0.0, 0.0, 0.0, 8.999999999999999e-08]"
1680186301645838480,,51275,,1607383734,29213824,"""fcu""",,-0.012890581249532447,-0.0009904778706700194,-0.9964012490819165,0.08376993909890035,"[1.0, 0.0, 0.0, 0.0, 1.0, 0.0, 0.0, 0.0, 1.0]",,-0.0004636927042156458,0.01170322950929405,0.1434614360332489,"[1.2184696791468346e-07, 0.0, 0.0, 0.0, 1.2184696791468346e-07, 0.0, 0.0, 0.0, 1.2184696791468346e-07]",,-0.00980665,0.9904716500000013,9.81645665,"[8.999999999999999e-08, 0.0, 0.0, 0.0, 8.999999999999999e-08, 0.0, 0.0, 0.0, 8.999999999999999e-08]"
1680186301660834715,,51276,,1607383734,46960640,"""fcu""",,-0.01295627438901625,-0.0010191178132934124,-0.9962901253700522,0.08507104350462014,"[1.0, 0.0, 0.0, 0.0, 1.0, 0.0, 0.0, 0.0, 1.0]",,-0.000565617810934782,0.00938063487410547,0.1447683423757553,"[1.2184696791468346e-07, 0.0, 0.0, 0.0, 1.2184696791468346e-07, 0.0, 0.0, 0.0, 1.2184696791468346e-07]",,0.0,0.9806650000000012,9.83606995,"[8.999999999999999e-08, 0.0, 0.0, 0.0, 8.999999999999999e-08, 0.0, 0.0, 0.0, 8.999999999999999e-08]"
1680186301684699080,,51277,,1607383734,60960640,"""fcu""",,-0.013017517933341815,-0.0010439289258229575,-0.9961848333702037,0.08628575897813279,"[1.0, 0.0, 0.0, 0.0, 1.0, 0.0, 0.0, 0.0, 1.0]",,-0.0012693994212895632,0.008510933257639425,0.1455351710319519,"[1.2184696791468346e-07, 0.0, 0.0, 0.0, 1.2184696791468346e-07, 0.0, 0.0, 0.0, 1.2184696791468346e-07]",,-0.0196133,0.9806650000000012,9.81645665,"[8.999999999999999e-08, 0.0, 0.0, 0.0, 8.999999999999999e-08, 0.0, 0.0, 0.0, 8.999999999999999e-08]"
1680186301696843642,,51278,,1607383734,78960640,"""fcu""",,-0.01310970021807608,-0.0010526447105136374,-0.9960692496107236,0.08759610538851081,"[1.0, 0.0, 0.0, 0.0, 1.0, 0.0, 0.0, 0.0, 1.0]",,-0.001630969112738967,0.006732332520186919,0.1463128924369812,"[1.2184696791468346e-07, 0.0, 0.0, 0.0, 1.2184696791468346e-07, 0.0, 0.0, 0.0, 1.2184696791468346e-07]",,-0.00980665,0.9610517000000013,9.77723005,"[8.999999999999999e-08, 0.0, 0.0, 0.0, 8.999999999999999e-08, 0.0, 0.0, 0.0, 8.999999999999999e-08]"
1680186301716984763,,51279,,1607383734,95960640,"""fcu""",,-0.013215734821652388,-0.0010757443756350593,-0.9959445973138573,0.08898621358671449,"[1.0, 0.0, 0.0, 0.0, 1.0, 0.0, 0.0, 0.0, 1.0]",,-0.0007220441475510597,0.005572780035436172,0.14749249815940857,"[1.2184696791468346e-07, 0.0, 0.0, 0.0, 1.2184696791468346e-07, 0.0, 0.0, 0.0, 1.2184696791468346e-07]",,-0.00980665,0.9512450500000013,9.7870367,"[8.999999999999999e-08, 0.0, 0.0, 0.0, 8.999999999999999e-08, 0.0, 0.0, 0.0, 8.999999999999999e-08]"
1680186301731741580,,51280,,1607383734,110960640,"""fcu""",,-0.013306632891431141,-0.0010962564238905079,-0.9958386984749183,0.09014997705338945,"[1.0, 0.0, 0.0, 0.0, 1.0, 0.0, 0.0, 0.0, 1.0]",,-0.0018843470606952906,0.00487243616953494,0.1485910266637802,"[1.2184696791468346e-07, 0.0, 0.0, 0.0, 1.2184696791468346e-07, 0.0, 0.0, 0.0, 1.2184696791468346e-07]",,0.0,0.9708583500000013,9.79684335,"[8.999999999999999e-08, 0.0, 0.0, 0.0, 8.999999999999999e-08, 0.0, 0.0, 0.0, 8.999999999999999e-08]"
1680186301751500623,,51281,,1607383734,128960640,"""fcu""",,-0.01340980520144468,-0.0011235171007891712,-0.9957164986914364,0.09147441755731617,"[1.0, 0.0, 0.0, 0.0, 1.0, 0.0, 0.0, 0.0, 1.0]",,-0.0004129523877054453,0.005038380622863788,0.1492975652217865,"[1.2184696791468346e-07, 0.0, 0.0, 0.0, 1.2184696791468346e-07, 0.0, 0.0, 0.0, 1.2184696791468346e-07]",,0.0,0.9806650000000012,9.7870367,"[8.999999999999999e-08, 0.0, 0.0, 0.0, 8.999999999999999e-08, 0.0, 0.0, 0.0, 8.999999999999999e-08]"
1680186301760932988,,51282,,1607383734,146645760,"""fcu""",,-0.013542617202805522,-0.0011655944217517477,-0.9955833973943832,0.09289207577398523,"[1.0, 0.0, 0.0, 0.0, 1.0, 0.0, 0.0, 0.0, 1.0]",,-0.0005953446961939335,0.002623197156935949,0.15098553895950317,"[1.2184696791468346e-07, 0.0, 0.0, 0.0, 1.2184696791468346e-07, 0.0, 0.0, 0.0, 1.2184696791468346e-07]",,0.0,0.9414384000000012,9.77723005,"[8.999999999999999e-08, 0.0, 0.0, 0.0, 8.999999999999999e-08, 0.0, 0.0, 0.0, 8.999999999999999e-08]"
1680186301777444291,,51283,,1607383734,162645760,"""fcu""",,-0.013672293914373378,-0.0011900379346432859,-0.995454856097836,0.09424055209977117,"[1.0, 0.0, 0.0, 0.0, 1.0, 0.0, 0.0, 0.0, 1.0]",,-0.00021505309268832207,0.0024315025657415576,0.1516617089509964,"[1.2184696791468346e-07, 0.0, 0.0, 0.0, 1.2184696791468346e-07, 0.0, 0.0, 0.0, 1.2184696791468346e-07]",,-0.0196133,0.9610517000000013,9.77723005,"[8.999999999999999e-08, 0.0, 0.0, 0.0, 8.999999999999999e-08, 0.0, 0.0, 0.0, 8.999999999999999e-08]"
1680186301795148760,,51284,,1607383734,180645760,"""fcu""",,-0.01380610839562513,-0.0012215287301160572,-0.9953168295120842,0.09566769636895534,"[1.0, 0.0, 0.0, 0.0, 1.0, 0.0, 0.0, 0.0, 1.0]",,-0.0009144542273133993,0.0023320009931922145,0.1524343192577362,"[1.2184696791468346e-07, 0.0, 0.0, 0.0, 1.2184696791468346e-07, 0.0, 0.0, 0.0, 1.2184696791468346e-07]",,-0.00980665,0.9512450500000013,9.79684335,"[8.999999999999999e-08, 0.0, 0.0, 0.0, 8.999999999999999e-08, 0.0, 0.0, 0.0, 8.999999999999999e-08]"
1680186301814883492,,51285,,1607383734,200645760,"""fcu""",,-0.013948232969325059,-0.0012693749323487988,-0.9951590972790814,0.09727387412352129,"[1.0, 0.0, 0.0, 0.0, 1.0, 0.0, 0.0, 0.0, 1.0]",,0.00048222742043435574,0.003372804494574685,0.15446583926677704,"[1.2184696791468346e-07, 0.0, 0.0, 0.0, 1.2184696791468346e-07, 0.0, 0.0, 0.0, 1.2184696791468346e-07]",,-0.00980665,0.9414384000000012,9.79684335,"[8.999999999999999e-08, 0.0, 0.0, 0.0, 8.999999999999999e-08, 0.0, 0.0, 0.0, 8.999999999999999e-08]"
1680186301833896055,,51286,,1607383734,218645760,"""fcu""",,-0.014064502451997498,-0.0013163422498725,-0.9950239997469185,0.09862908770491174,"[1.0, 0.0, 0.0, 0.0, 1.0, 0.0, 0.0, 0.0, 1.0]",,0.0013779427390545607,0.0036917317193001695,0.15388017892837524,"[1.2184696791468346e-07, 0.0, 0.0, 0.0, 1.2184696791468346e-07, 0.0, 0.0, 0.0, 1.2184696791468346e-07]",,0.0,0.9512450500000013,9.77723005,"[8.999999999999999e-08, 0.0, 0.0, 0.0, 8.999999999999999e-08, 0.0, 0.0, 0.0, 8.999999999999999e-08]"
1680186301851243112,,51287,,1607383734,235645760,"""fcu""",,-0.01418387331016614,-0.001360725658832563,-0.9948776818550322,0.10007679206669123,"[1.0, 0.0, 0.0, 0.0, 1.0, 0.0, 0.0, 0.0, 1.0]",,0.00033075734972953796,0.004189744591712971,0.15475980937480927,"[1.2184696791468346e-07, 0.0, 0.0, 0.0, 1.2184696791468346e-07, 0.0, 0.0, 0.0, 1.2184696791468346e-07]",,0.0,0.9414384000000012,9.7870367,"[8.999999999999999e-08, 0.0, 0.0, 0.0, 8.999999999999999e-08, 0.0, 0.0, 0.0, 8.999999999999999e-08]"
1680186301865380422,,51288,,1607383734,250819840,"""fcu""",,-0.014259281666452007,-0.0013977725929141813,-0.9947619264509202,0.10120982561880654,"[1.0, 0.0, 0.0, 0.0, 1.0, 0.0, 0.0, 0.0, 1.0]",,0.0007102529052644968,0.005954248365014811,0.15437255799770355,"[1.2184696791468346e-07, 0.0, 0.0, 0.0, 1.2184696791468346e-07, 0.0, 0.0, 0.0, 1.2184696791468346e-07]",,0.0,0.9414384000000012,9.77723005,"[8.999999999999999e-08, 0.0, 0.0, 0.0, 8.999999999999999e-08, 0.0, 0.0, 0.0, 8.999999999999999e-08]"
1680186301886084211,,51289,,1607383734,270819840,"""fcu""",,-0.014380813686416019,-0.0014384618900811841,-0.9945871434808877,0.10289575816152641,"[1.0, 0.0, 0.0, 0.0, 1.0, 0.0, 0.0, 0.0, 1.0]",,0.001055161003023386,0.006174785085022469,0.15401606261730194,"[1.2184696791468346e-07, 0.0, 0.0, 0.0, 1.2184696791468346e-07, 0.0, 0.0, 0.0, 1.2184696791468346e-07]",,0.00980665,0.9316317500000013,9.7674234,"[8.999999999999999e-08, 0.0, 0.0, 0.0, 8.999999999999999e-08, 0.0, 0.0, 0.0, 8.999999999999999e-08]"
1680186301903120344,,51290,,1607383734,288819840,"""fcu""",,-0.014453104914277636,-0.0014715294472106928,-0.9944442609431647,0.10425715436662386,"[1.0, 0.0, 0.0, 0.0, 1.0, 0.0, 0.0, 0.0, 1.0]",,-4.275282844901085e-05,0.00827004387974741,0.15323494374752045,"[1.2184696791468346e-07, 0.0, 0.0, 0.0, 1.2184696791468346e-07, 0.0, 0.0, 0.0, 1.2184696791468346e-07]",,0.00980665,0.9414384000000012,9.7674234,"[8.999999999999999e-08, 0.0, 0.0, 0.0, 8.999999999999999e-08, 0.0, 0.0, 0.0, 8.999999999999999e-08]"
1680186301916545719,,51291,,1607383734,302819840,"""fcu""",,-0.014515606223701592,-0.001516971037184865,-0.9943169627975846,0.10545507796127013,"[1.0, 0.0, 0.0, 0.0, 1.0, 0.0, 0.0, 0.0, 1.0]",,0.0011901110410690308,0.009021065197885056,0.153452530503273,"[1.2184696791468346e-07, 0.0, 0.0, 0.0, 1.2184696791468346e-07, 0.0, 0.0, 0.0, 1.2184696791468346e-07]",,0.0196133,0.9512450500000013,9.75761675,"[8.999999999999999e-08, 0.0, 0.0, 0.0, 8.999999999999999e-08, 0.0, 0.0, 0.0, 8.999999999999999e-08]"
1680186301932455591,,51292,,1607383734,318819840,"""fcu""",,-0.01455554424263309,-0.0015390525546852567,-0.9941888207238605,0.10665062679953863,"[1.0, 0.0, 0.0, 0.0, 1.0, 0.0, 0.0, 0.0, 1.0]",,0.0010569121222943068,0.011203819885849972,0.1527232676744461,"[1.2184696791468346e-07, 0.0, 0.0, 0.0, 1.2184696791468346e-07, 0.0, 0.0, 0.0, 1.2184696791468346e-07]",,0.00980665,0.9414384000000012,9.77723005,"[8.999999999999999e-08, 0.0, 0.0, 0.0, 8.999999999999999e-08, 0.0, 0.0, 0.0, 8.999999999999999e-08]"
1680186301949700689,,51293,,1607383734,335819840,"""fcu""",,-0.014598038823939894,-0.0015602052340695806,-0.9940321756051869,0.10809485132855096,"[1.0, 0.0, 0.0, 0.0, 1.0, 0.0, 0.0, 0.0, 1.0]",,-0.000709395157173276,0.012927318923175354,0.15325258672237396,"[1.2184696791468346e-07, 0.0, 0.0, 0.0, 1.2184696791468346e-07, 0.0, 0.0, 0.0, 1.2184696791468346e-07]",,0.00980665,0.9120184500000013,9.75761675,"[8.999999999999999e-08, 0.0, 0.0, 0.0, 8.999999999999999e-08, 0.0, 0.0, 0.0, 8.999999999999999e-08]"
1680186301977757525,,51294,,1607383734,351879296,"""fcu""",,-0.014622448277819096,-0.0015930400822144906,-0.9938829253705348,0.10945490800583918,"[1.0, 0.0, 0.0, 0.0, 1.0, 0.0, 0.0, 0.0, 1.0]",,4.762411117553711e-05,0.014280813746154327,0.15283408761024475,"[1.2184696791468346e-07, 0.0, 0.0, 0.0, 1.2184696791468346e-07, 0.0, 0.0, 0.0, 1.2184696791468346e-07]",,0.0196133,0.9120184500000013,9.7478101,"[8.999999999999999e-08, 0.0, 0.0, 0.0, 8.999999999999999e-08, 0.0, 0.0, 0.0, 8.999999999999999e-08]"
1680186301993842132,,51295,,1607383734,367879296,"""fcu""",,-0.014623364319710336,-0.0016273226533124417,-0.9937506482341192,0.11064880555714507,"[1.0, 0.0, 0.0, 0.0, 1.0, 0.0, 0.0, 0.0, 1.0]",,0.00027921167202293873,0.016163028776645678,0.15161268413066864,"[1.2184696791468346e-07, 0.0, 0.0, 0.0, 1.2184696791468346e-07, 0.0, 0.0, 0.0, 1.2184696791468346e-07]",,0.0,0.9512450500000013,9.75761675,"[8.999999999999999e-08, 0.0, 0.0, 0.0, 8.999999999999999e-08, 0.0, 0.0, 0.0, 8.999999999999999e-08]"
1680186302010806307,,51296,,1607383734,386879296,"""fcu""",,-0.014606899344156665,-0.0016484947741544967,-0.9935701529209775,0.11225984224607954,"[1.0, 0.0, 0.0, 0.0, 1.0, 0.0, 0.0, 0.0, 1.0]",,0.0006844466552138329,0.019307630136609095,0.15266287326812744,"[1.2184696791468346e-07, 0.0, 0.0, 0.0, 1.2184696791468346e-07, 0.0, 0.0, 0.0, 1.2184696791468346e-07]",,0.0,0.9512450500000013,9.75761675,"[8.999999999999999e-08, 0.0, 0.0, 0.0, 8.999999999999999e-08, 0.0, 0.0, 0.0, 8.999999999999999e-08]"
